Street1,Street2,City,State,Zip,Latitude,Longitude,County,Census Year,ACS Demographics/Population by age range/Total/Value,ACS Demographics/Race and ethnicity/Not Hispanic or Latino/Percentage,ACS Demographics/Race and ethnicity/Not Hispanic or Latino: White alone/Percentage,ACS Demographics/Race and ethnicity/Not Hispanic or Latino: Black or African American alone/Percentage,ACS Demographics/Race and ethnicity/Not Hispanic or Latino: American Indian and Alaska Native alone/Percentage,ACS Demographics/Race and ethnicity/Not Hispanic or Latino: Asian alone/Percentage,ACS Demographics/Race and ethnicity/Not Hispanic or Latino: Native Hawaiian and Other Pacific Islander alone/Percentage,ACS Demographics/Race and ethnicity/Not Hispanic or Latino: Some other race alone/Percentage,ACS Demographics/Race and ethnicity/Not Hispanic or Latino: Two or more races/Percentage,ACS Demographics/Race and ethnicity/Not Hispanic or Latino: Two or more races: Two races including Some other race/Percentage,"ACS Demographics/Race and ethnicity/Not Hispanic or Latino: Two or more races: Two races excluding Some other race, and three or more races/Percentage",ACS Demographics/Race and ethnicity/Hispanic or Latino/Percentage,ACS Demographics/Race and ethnicity/Hispanic or Latino: White alone/Percentage,ACS Demographics/Race and ethnicity/Hispanic or Latino: Black or African American alone/Percentage,ACS Demographics/Race and ethnicity/Hispanic or Latino: American Indian and Alaska Native alone/Percentage,ACS Demographics/Race and ethnicity/Hispanic or Latino: Asian alone/Percentage,ACS Demographics/Race and ethnicity/Hispanic or Latino: Native Hawaiian and Other Pacific Islander alone/Percentage,ACS Demographics/Race and ethnicity/Hispanic or Latino: Some other race alone/Percentage,ACS Demographics/Race and ethnicity/Hispanic or Latino: Two or more races/Percentage,ACS Demographics/Race and ethnicity/Hispanic or Latino: Two or more races: Two races including Some other race/Percentage,"ACS Demographics/Race and ethnicity/Hispanic or Latino: Two or more races: Two races excluding Some other race, and three or more races/Percentage",ACS Economics/Number of households/Total/Value,ACS Economics/Median household income/Total/Value,"ACS Economics/Household income/Less than $10,000/Value","ACS Economics/Household income/$10,000 to $14,999/Value","ACS Economics/Household income/$15,000 to $19,999/Value","ACS Economics/Household income/$20,000 to $24,999/Value","ACS Economics/Household income/$25,000 to $29,999/Value","ACS Economics/Household income/$30,000 to $34,999/Value","ACS Economics/Household income/$35,000 to $39,999/Value","ACS Economics/Household income/$40,000 to $44,999/Value","ACS Economics/Household income/$45,000 to $49,999/Value","ACS Economics/Household income/$50,000 to $59,999/Value","ACS Economics/Household income/$60,000 to $74,999/Value","ACS Economics/Household income/$75,000 to $99,999/Value","ACS Economics/Household income/$100,000 to $124,999/Value","ACS Economics/Household income/$125,000 to $149,999/Value","ACS Economics/Household income/$150,000 to $199,999/Value","ACS Economics/Household income/$200,000 or more/Value",ACS Housing/Median value of owner-occupied housing units/Total/Value,"ACS Housing/Value of owner-occupied housing units/Less than $10,000/Value","ACS Housing/Value of owner-occupied housing units/$10,000 to $14,999/Value","ACS Housing/Value of owner-occupied housing units/$15,000 to $19,999/Value","ACS Housing/Value of owner-occupied housing units/$20,000 to $24,999/Value","ACS Housing/Value of owner-occupied housing units/$25,000 to $29,999/Value","ACS Housing/Value of owner-occupied housing units/$30,000 to $34,999/Value","ACS Housing/Value of owner-occupied housing units/$35,000 to $39,999/Value","ACS Housing/Value of owner-occupied housing units/$40,000 to $49,999/Value","ACS Housing/Value of owner-occupied housing units/$50,000 to $59,999/Value","ACS Housing/Value of owner-occupied housing units/$60,000 to $69,999/Value","ACS Housing/Value of owner-occupied housing units/$70,000 to $79,999/Value","ACS Housing/Value of owner-occupied housing units/$80,000 to $89,999/Value","ACS Housing/Value of owner-occupied housing units/$90,000 to $99,999/Value","ACS Housing/Value of owner-occupied housing units/$100,000 to $124,999/Value","ACS Housing/Value of owner-occupied housing units/$125,000 to $149,999/Value","ACS Housing/Value of owner-occupied housing units/$150,000 to $174,999/Value","ACS Housing/Value of owner-occupied housing units/$175,000 to $199,999/Value","ACS Housing/Value of owner-occupied housing units/$200,000 to $249,999/Value","ACS Housing/Value of owner-occupied housing units/$250,000 to $299,999/Value","ACS Housing/Value of owner-occupied housing units/$300,000 to $399,999/Value","ACS Housing/Value of owner-occupied housing units/$400,000 to $499,999/Value","ACS Housing/Value of owner-occupied housing units/$500,000 to $749,999/Value","ACS Housing/Value of owner-occupied housing units/$750,000 to $999,999/Value","ACS Housing/Value of owner-occupied housing units/$1,000,000 to $1,499,999/Value","ACS Housing/Value of owner-occupied housing units/$1,500,000 to $1,999,999/Value","ACS Housing/Value of owner-occupied housing units/$2,000,000 or more/Value"
21 Flushing Ave,,Brooklyn,NY,11205,40.698279,-73.978418,Kings County,2019,13,1,1,0,0,0,0,0,0,0,0,0,0,0,0,0,0,0,0,0,0,4,0,0,0,0,0,0,0,0,0,0,0,0,0,0,0,4,0,0,0,0,0,0,0,0,0,0,0,0,0,0,0,0,0,0,0,0,0,4,0,0,0,0,0,0
345 Eastern Boulevard,,Canandaigua,NY,14424,42.875576,-77.255075,Ontario County,2019,385,1,0.935,0,0,0,0,0,0.065,0,1,0,0,0,0,0,0,0,0,0,0,197,51691,0,0,0,0,32,9,31,15,0,17,38,8,10,18,5,14,0,15,7,0,0,30,0,15,0,10,0,0,0,0,0,0,16,0,13,6,23,9,3,0,0,0,0
345 Colonnade Blvd,,State College,PA,16803,40.811645,-77.908084,Centre County,2019,526,1,0.414,0.171,0,0.414,0,0,0,0,0,0,0,0,0,0,0,0,0,0,0,248,39040,0,0,0,26,15,22,99,0,10,28,20,0,0,0,28,0,139100,0,0,0,0,0,0,0,0,0,0,0,0,0,0,153,0,0,0,20,0,0,0,0,0,0,0
201 William Street,,Williamsport,PA,17701,41.237788,-77.005189,Lycoming County,2019,557,0.978,0.802,0.15,0.026,0,0,0,0.022,0,1,0.022,0,0.5,0,0,0,0.5,0,0,0,240,29750,26,17,32,14,33,42,0,8,0,0,19,0,9,21,10,9,0,0,0,0,0,0,0,0,0,0,0,0,0,0,0,0,0,0,9,0,0,0,0,0,0,0,0
6789 East Genesee Street,,Fayetteville,NY,13066,43.033137,-76.053359,Onondaga County,2019,596,0.963,0.895,0.073,0,0.031,0,0,0,0,0,0.037,1,0,0,0,0,0,0,0,0,239,101607,0,8,0,17,0,0,0,0,32,0,28,30,28,33,43,20,273100,0,0,0,7,9,0,0,0,0,0,0,0,0,0,0,6,19,36,67,46,9,17,0,0,0,0
300 Hamilton Street,,Geneva,NY,14456,42.859849,-76.996368,Ontario County,2019,614,0.985,0.98,0,0,0.02,0,0,0,0,0,0.015,1,0,0,0,0,0,0,0,0,276,73750,9,0,7,10,0,32,27,0,0,21,32,49,47,16,26,0,98900,0,4,0,0,0,0,0,0,6,27,25,35,41,59,23,38,0,9,0,0,0,0,0,0,0,0
1 Loop Road,,Auburn,NY,13021,42.931996,-76.563883,Cayuga County,2019,622,0.979,0.765,0.235,0,0,0,0,0,0,0,0.021,1,0,0,0,0,0,0,0,0,364,40968,22,64,15,17,20,7,25,31,53,10,0,57,15,9,0,19,95700,0,0,0,0,0,0,0,0,0,0,10,14,21,8,0,0,0,10,0,0,0,0,0,0,0,9
800 West Miller St.,,Newark,NY,14513,43.045279,-77.110212,Wayne County,2019,694,0.958,0.974,0,0,0,0,0,0.026,0,1,0.042,1,0,0,0,0,0,0,0,0,285,55486,0,0,15,0,0,0,23,35,0,84,66,43,0,19,0,0,89100,0,0,0,0,0,0,0,0,44,16,37,34,56,52,17,0,0,0,0,0,0,0,0,0,0,0
2200 Ridge Road East,,Rochester,NY,14622,43.204947,-77.558599,Monroe County,2019,702,0.98,1,0,0,0,0,0,0,0,0,0.02,0.5,0,0,0,0,0,0.5,0,1,350,74643,0,0,10,0,28,0,22,46,7,22,41,71,30,47,26,0,113500,0,12,0,0,0,0,0,0,0,0,0,22,30,184,40,6,8,7,10,0,0,7,0,0,0,0
1100 Clemens Center Pkwy,,Elmira,NY,14901,42.105356,-76.808883,Chemung County,2019,741,0.9,0.745,0.099,0,0,0,0,0.156,0,1,0.1,1,0,0,0,0,0,0,0,0,287,25707,40,25,35,37,42,0,7,5,8,12,40,27,9,0,0,0,48500,0,0,9,8,0,13,0,27,23,8,6,0,12,0,0,0,0,0,0,0,0,0,0,0,0,0
1 Village Drive,,King of Prussia,PA,19406,40.084013,-75.402143,Montgomery County,2019,760,0.959,0.361,0.032,0,0.583,0,0,0.025,1,0,0.041,0.226,0,0,0,0,0,0.774,0,1,401,92560,0,0,10,8,0,0,7,14,10,60,62,50,71,25,37,47,0,0,0,0,0,0,0,0,0,0,0,0,0,0,0,0,0,0,0,0,0,0,0,0,0,0,0
7952 Brewerton Road,,Cicero,NY,13039,43.155648,-76.121155,Onondaga County,2019,762,0.95,1,0,0,0,0,0,0,0,0,0.05,1,0,0,0,0,0,0,0,0,270,51176,0,0,24,12,16,32,17,0,26,17,33,57,36,0,0,0,107600,0,14,0,0,0,0,0,0,0,0,45,0,33,113,31,17,0,0,0,0,0,0,0,0,0,0
4722 Onondaga Boulevard,,Syracuse,NY,13219,43.031331,-76.192202,Onondaga County,2019,789,0.992,0.865,0.087,0.023,0,0,0,0.026,0,1,0.008,1,0,0,0,0,0,0,0,0,398,79196,18,8,15,5,4,18,11,17,4,17,38,73,70,36,43,21,158300,0,0,0,0,0,0,0,6,0,5,0,31,35,41,44,48,37,56,6,40,7,0,0,0,0,0
6143 Peach Street,,Erie,PA,16509,42.060378,-80.091689,Erie County,2019,811,1,0.864,0.064,0.044,0.027,0,0,0,0,0,0,0,0,0,0,0,0,0,0,0,526,36688,119,8,0,16,26,67,40,107,28,38,49,0,28,0,0,0,123200,0,0,0,0,0,0,0,0,0,0,0,0,0,55,26,13,0,8,0,0,0,0,0,0,0,0
650 Harry L Drive,,Johnson City,NY,13790,42.122868,-75.973169,Broome County,2019,860,0.934,0.803,0.007,0,0.111,0,0,0.078,0,1,0.066,0,0,0.421,0,0,0,0.579,0,1,350,61607,9,22,27,17,14,9,18,21,0,29,54,73,18,22,17,0,106900,0,0,0,0,0,0,0,0,0,0,58,43,23,47,43,22,19,0,6,0,0,0,13,0,0,0
1000 Highway 36 North,,Hornell,NY,14843,42.318863,-77.660422,Steuben County,2019,902,0.99,0.861,0.038,0,0,0,0,0.101,0,1,0.01,1,0,0,0,0,0,0,0,0,284,54268,0,26,32,28,7,0,6,6,0,77,21,43,32,0,0,6,63800,0,0,0,0,6,0,0,9,41,21,6,23,0,0,11,11,0,0,0,0,0,0,0,0,0,0
945 Fairmount Ave,,Jamestown,NY,14701,42.094472,-79.290858,Chautauqua County,2019,949,0.984,0.999,0.001,0,0,0,0,0,0,0,0.016,0.933,0.067,0,0,0,0,0,0,0,401,64602,0,17,28,0,11,29,31,31,7,28,68,28,50,73,0,0,101900,9,17,0,0,0,0,11,20,0,53,32,29,7,27,49,0,32,22,44,0,8,0,0,0,0,0
122 Shawan Road,,Hunt Valley,MD,21030,39.497972,-76.656351,Baltimore County,2019,953,0.973,0.888,0.03,0,0.064,0,0.009,0.01,0,1,0.027,0.846,0.115,0,0,0,0.038,0,0,0,552,72000,5,35,40,11,28,11,32,35,15,25,48,80,56,24,44,63,266400,0,0,0,0,0,0,0,0,0,0,10,0,0,0,11,5,10,64,113,56,0,5,0,0,0,0
4979 West Taft Road,,Liverpool,NY,13088,43.122818,-76.169661,Onondaga County,2019,954,1,0.802,0.065,0,0.102,0,0.017,0.015,0,1,0,0,0,0,0,0,0,0,0,0,595,42008,9,42,41,48,27,44,60,33,28,66,56,67,17,7,35,15,240300,0,8,0,0,0,0,0,0,0,0,0,0,0,7,9,10,24,36,26,44,0,10,0,0,0,0
5028 West Ridge Road,,Erie,PA,16506,42.068236,-80.189134,Erie County,2019,958,0.971,0.984,0.009,0.008,0,0,0,0,0,0,0.029,1,0,0,0,0,0,0,0,0,439,36321,40,76,28,11,16,30,43,28,14,43,24,28,12,16,10,20,146900,0,0,0,0,0,0,0,0,0,0,0,5,9,30,16,36,0,8,0,0,0,12,0,0,0,0
525 Titus Avenue,,Rochester,NY,14617,43.20926,-77.60285,Monroe County,2019,967,0.604,0.67,0.33,0,0,0,0,0,0,0,0.396,0.966,0,0,0,0,0.034,0,0,0,465,35729,75,81,46,17,0,10,31,0,0,86,46,13,27,33,0,0,130000,0,0,0,0,0,0,0,0,0,0,0,0,0,72,75,27,0,0,0,0,0,0,0,0,0,0
4256 James Street,,East Syracuse,NY,13057,43.068433,-76.087068,Onondaga County,2019,968,0.969,0.759,0.141,0.015,0,0,0,0.085,0,1,0.031,1,0,0,0,0,0,0,0,0,400,61161,19,0,0,17,35,14,21,31,18,32,59,46,86,22,0,0,89000,0,0,0,0,0,0,0,0,17,42,33,58,45,53,0,9,0,0,0,3,11,0,7,10,0,0
601 Amherst Street,,Buffalo,NY,14207,42.939219,-78.88273,Erie County,2019,986,0.765,0.821,0.146,0.009,0,0,0,0.024,0,1,0.235,0.069,0,0.099,0,0,0.832,0,0,0,353,37740,31,46,0,8,25,64,26,40,14,24,39,0,0,0,7,29,117200,0,0,9,0,0,0,0,8,13,0,10,0,0,8,0,19,0,24,0,0,0,0,0,0,0,0
1955 Empire Boulevard,,Webster,NY,14580,43.191338,-77.504326,Monroe County,2019,998,0.98,0.97,0.001,0,0.014,0,0,0.014,0,1,0.02,1,0,0,0,0,0,0,0,0,668,34953,32,57,33,102,58,53,17,14,32,39,111,65,27,16,0,12,142200,0,0,0,16,0,0,0,0,0,0,0,0,0,16,110,36,25,12,0,0,0,0,0,0,0,0
500 South Meadow Street,,Ithaca,NY,14850,42.435661,-76.510575,Tompkins County,2019,1035,1,0.835,0,0,0.165,0,0,0,0,0,0,0,0,0,0,0,0,0,0,0,655,33125,115,113,49,28,0,51,17,31,0,55,14,119,27,24,12,0,154300,0,0,0,0,0,23,14,29,0,0,0,0,0,26,13,26,24,37,15,12,0,0,0,0,0,0
675 Alberta Drive,,Amherst,NY,14226,42.989198,-78.816052,Erie County,2019,1063,0.971,0.467,0.299,0.02,0.149,0,0.047,0.016,0,1,0.029,1,0,0,0,0,0,0,0,0,673,0,214,55,42,13,0,37,0,14,35,90,89,24,18,42,0,0,87200,0,0,0,0,0,0,0,0,0,0,17,79,20,0,13,18,0,0,0,0,0,0,0,0,0,0
8297 Stonewall Shops Square,,Gainesville,VA,20155,38.784418,-77.653317,Prince William County,2019,1065,0.975,0.662,0.201,0,0.115,0,0,0.022,0,1,0.025,1,0,0,0,0,0,0,0,0,367,219531,0,0,0,0,0,33,0,0,0,8,11,20,0,36,38,221,719100,11,0,0,0,0,0,0,0,0,0,0,0,0,0,0,0,0,0,0,0,6,170,104,41,0,0
1245 Worcester Street,,Natick,MA,1760,42.300724,-71.38567,Middlesex County,2019,1155,0.955,0.681,0,0.001,0.306,0,0,0.012,0,1,0.045,1,0,0,0,0,0,0,0,0,491,141250,23,7,9,8,0,0,0,41,0,9,45,55,34,67,80,113,499300,0,0,0,0,0,0,0,0,0,0,0,0,0,0,0,10,0,0,0,68,149,209,16,0,0,0
2100 Route 70 West,,Cherry Hill,NJ,8002,39.920712,-75.03745,Camden County,2019,1170,0.896,0.975,0.003,0,0.022,0,0,0,0,0,0.104,1,0,0,0,0,0,0,0,0,549,48348,17,37,111,10,26,14,39,0,39,22,33,45,19,53,37,47,223500,12,0,0,0,0,0,0,61,0,0,0,0,15,0,0,23,88,33,70,103,0,13,11,0,0,0
20600 Seneca Meadows Parkway,,Germantown,MD,20876,39.199276,-77.256527,Montgomery County,2019,1183,0.973,0.503,0.356,0.074,0.056,0,0,0.01,0,1,0.027,0,1,0,0,0,0,0,0,0,357,111250,64,0,0,0,0,0,0,0,52,19,18,0,79,36,37,52,387100,0,0,0,0,0,0,0,0,0,0,0,0,0,0,0,0,0,12,0,97,28,34,0,0,0,22
3325 West Genesee Street,,Syracuse,NY,13219,43.047013,-76.227364,Onondaga County,2019,1196,0.992,0.838,0.154,0,0,0,0,0.008,0,1,0.008,1,0,0,0,0,0,0,0,0,472,60000,17,8,0,48,37,28,21,9,24,44,35,93,16,35,57,0,140900,0,8,0,0,0,0,0,0,0,0,9,8,16,85,145,114,32,19,0,0,0,0,0,0,0,0
7519 Oswego Road,,Liverpool,NY,13090,43.134931,-76.223681,Onondaga County,2019,1205,0.987,0.96,0.04,0,0,0,0,0,0,0,0.013,1,0,0,0,0,0,0,0,0,503,78695,16,14,17,21,0,0,31,0,14,84,22,148,48,24,22,42,148900,0,15,0,0,0,0,0,0,0,0,16,0,17,101,107,131,22,12,55,14,0,0,0,13,0,0
169 University Avenue,,Westwood,MA,2090,42.206686,-71.154577,Norfolk County,2019,1223,0.943,0.781,0.093,0,0.127,0,0,0,0,0,0.057,1,0,0,0,0,0,0,0,0,460,149881,23,13,11,11,11,13,0,0,13,0,14,48,24,50,87,142,878700,0,0,0,0,0,0,0,0,0,0,0,0,0,0,0,0,0,0,0,0,0,58,201,64,0,0
2000 Crossings Blvd,,Lancaster,PA,17601,40.059345,-76.340656,Lancaster County,2019,1226,0.791,0.948,0.009,0,0.019,0,0,0.024,0,1,0.209,0.066,0.352,0,0,0,0.035,0.547,0,1,416,58750,6,30,24,8,13,36,16,46,5,32,31,68,32,8,44,17,124100,0,0,0,0,0,0,0,0,0,0,6,7,7,79,14,15,21,32,7,0,0,4,0,0,0,0
11620 Monument Drive,,Fairfax,VA,22030,38.85153,-77.347807,Fairfax County,2019,1229,0.823,0.568,0.21,0,0.208,0,0,0.015,0,1,0.177,0.344,0.073,0,0,0,0.583,0,0,0,680,77286,54,0,0,0,25,35,23,41,0,81,49,175,79,44,74,0,0,0,0,0,0,0,0,0,0,0,0,0,0,0,0,0,0,0,0,0,0,0,0,0,0,0,0
651 Dick Road,,Depew,NY,14043,42.920671,-78.737235,Erie County,2019,1241,1,0.871,0.031,0,0.029,0,0,0.069,0.709,0.291,0,0,0,0,0,0,0,0,0,0,643,58558,0,23,29,26,39,18,28,77,18,71,44,144,67,51,8,0,116900,0,0,0,0,0,0,0,0,0,10,0,23,34,180,72,26,16,0,0,9,0,7,0,0,0,0
1750 East Avenue,,Rochester,NY,14610,43.146546,-77.557501,Monroe County,2019,1260,0.944,0.824,0.142,0,0.021,0,0,0.013,0,1,0.056,0.859,0,0,0,0,0.141,0,0,0,956,52750,87,24,58,62,53,17,82,66,9,48,122,142,50,46,24,66,166100,0,0,0,0,0,0,0,0,0,8,0,0,8,47,16,31,0,13,6,29,10,9,10,11,0,0
7905 Hilltop Village Center Drive,,Alexandria,VA,22315,38.742396,-77.161782,Fairfax County,2019,1293,0.869,0.641,0.263,0,0.074,0,0,0.022,0,1,0.131,0.657,0,0,0,0,0,0.343,0.741,0.259,620,122000,7,0,0,0,8,10,0,8,50,20,58,61,132,42,109,115,512200,0,0,0,0,0,0,0,0,0,0,0,0,0,0,0,0,0,32,108,68,35,185,76,0,0,0
34 Sylvan Way,,Hanover,NJ,7054,40.846702,-74.447657,Morris County,2019,1324,0.822,0.646,0.019,0,0.281,0,0,0.053,0,1,0.178,1,0,0,0,0,0,0,0,0,361,106964,0,0,0,16,0,8,0,0,30,17,17,77,51,36,78,31,397500,0,0,0,0,0,0,0,0,0,0,0,0,0,0,0,9,0,7,19,122,114,37,0,0,0,0
3195 Monroe Avenue,,Rochester,NY,14618,43.103939,-77.543324,Monroe County,2019,1344,0.973,0.73,0.05,0,0.206,0,0,0.015,0,1,0.027,0.583,0,0,0,0,0.139,0.278,1,0,455,89191,20,0,0,0,22,3,4,31,23,16,33,98,35,12,7,151,350000,0,0,0,0,0,0,0,0,0,0,0,15,0,0,5,16,3,28,19,29,24,22,0,0,40,0
106 Corporate Park Drive,,Harrison,NY,10604,41.020428,-73.718943,Westchester County,2019,1394,0.878,0.865,0.071,0,0.051,0,0.012,0,0,0,0.122,0.353,0,0,0,0,0.488,0.159,1,0,423,0,54,0,7,9,0,0,26,0,0,0,39,41,42,8,0,197,1691700,0,0,0,0,0,0,0,0,0,0,0,0,0,0,0,0,8,0,0,0,0,34,54,57,15,161
4721 Virginia Beach Blvd,,Virginia Beach,VA,23462,36.842267,-76.140357,Virginia Beach city,2019,1417,0.974,0.665,0.164,0,0.167,0,0,0.004,0,1,0.026,0.405,0,0.405,0,0,0.189,0,0,0,539,56366,6,0,5,40,50,27,20,69,5,78,88,82,9,33,0,27,215300,0,0,0,0,0,0,0,0,0,0,0,0,0,12,5,16,49,100,27,10,0,6,0,0,0,0
24 S Bridge St,,Corning,NY,14830,42.145899,-77.063394,Steuben County,2019,1471,1,0.935,0.015,0,0.031,0,0,0.02,0,1,0,0,0,0,0,0,0,0,0,0,660,55583,29,10,18,30,28,62,16,50,69,41,108,112,20,15,33,19,100400,0,20,0,0,0,0,0,16,10,41,32,32,16,97,25,29,0,6,7,0,0,6,0,0,0,0
53 Third Avenue,,Burlington,MA,1803,42.487326,-71.226524,Middlesex County,2019,1500,0.991,0.822,0.011,0,0.145,0,0,0.022,1,0,0.009,1,0,0,0,0,0,0,0,0,797,88711,87,10,21,27,11,10,50,11,9,12,50,159,54,88,82,116,538200,11,0,0,0,0,0,0,0,0,0,0,0,0,9,0,11,0,0,10,23,69,144,33,0,0,0
3135 Niagara Falls Blvd,,Amherst,NY,14228,43.038337,-78.823496,Erie County,2019,1506,0.979,0.637,0.292,0,0.045,0,0,0.026,0,1,0.021,0,0,0,0,0,0,1,0,1,766,37500,83,55,41,39,89,23,79,10,27,13,103,85,30,18,71,0,169400,0,0,0,0,0,0,0,0,0,0,41,0,0,14,61,58,51,68,29,0,0,0,0,0,0,0
14361 Newbrook Drive,,Chantilly,VA,20151,38.877441,-77.443629,Fairfax County,2019,1513,0.753,0.758,0,0,0.191,0,0,0.051,0,1,0.247,0.291,0.094,0,0,0,0.214,0.401,0.867,0.133,424,96111,9,8,17,0,11,0,0,21,0,43,13,95,27,82,45,53,443100,9,0,0,0,0,0,0,0,0,0,0,0,0,0,0,0,0,0,11,119,72,129,0,0,0,0
600 Commerce Drive,,Collegeville,PA,19426,40.137282,-75.197001,Montgomery County,2019,1540,0.982,0.9,0.032,0,0.067,0,0,0,0,0,0.018,1,0,0,0,0,0,0,0,0,589,142019,0,0,6,24,25,0,14,18,0,44,41,42,52,45,61,217,631200,0,0,0,0,0,0,0,0,0,0,0,0,0,0,0,0,0,0,0,0,34,322,42,8,0,0
3850 Mystic Valley Parkway,,Medford,MA,2155,42.406941,-71.091826,Middlesex County,2019,1544,0.926,0.712,0.023,0,0.259,0,0,0.006,1,0,0.074,1,0,0,0,0,0,0,0,0,691,98705,9,13,36,52,0,10,0,45,0,25,34,150,110,43,82,82,396200,30,0,0,0,0,0,0,0,0,0,0,0,0,0,0,0,0,23,16,173,161,68,0,0,0,0
3955 Route 31,,Liverpool,NY,13090,43.185989,-76.235293,Onondaga County,2019,1571,0.982,0.957,0.029,0,0,0,0,0.015,0,1,0.018,0.586,0,0,0,0,0.414,0,0,0,833,53281,37,22,15,26,43,90,45,28,25,132,113,82,23,24,81,47,147900,0,0,0,0,0,7,0,0,0,21,0,29,0,68,72,43,25,52,32,12,21,0,0,0,0,0
3791 Easton Nazareth Highway,,Easton,PA,18045,40.71554,-75.287681,Northampton County,2019,1574,0.939,0.916,0.026,0,0.045,0,0,0.013,0,1,0.061,0.698,0.135,0,0,0,0.167,0,0,0,541,102019,0,0,0,28,26,18,17,12,11,30,50,68,59,91,40,91,360800,5,0,0,0,0,0,0,0,0,0,0,0,6,17,17,21,10,59,34,111,69,83,36,5,0,0
Fairport - Marsh Roads,,East Rochester,NY,14445,43.105114,-77.489668,Monroe County,2019,1591,0.952,0.955,0.03,0,0,0,0,0.015,0,1,0.048,0.857,0,0,0,0,0,0.143,0,1,603,69866,0,4,39,18,8,18,31,49,45,29,131,64,62,55,27,23,126600,0,8,0,0,0,0,0,0,0,0,11,16,76,138,85,18,20,29,89,12,7,0,0,0,0,0
12501 Stone Village Way,,Midlothian,VA,23113,37.502773,-77.6241,Chesterfield County,2019,1619,0.99,0.91,0.075,0,0,0,0,0.015,0,1,0.01,1,0,0,0,0,0,0,0,0,623,118274,13,0,0,0,13,0,17,12,0,26,27,113,105,112,96,89,339000,0,0,0,14,0,0,0,0,0,0,0,0,0,0,0,13,0,67,120,250,121,26,12,0,0,0
3175 Chili Avenue,,Rochester,NY,14624,43.104476,-77.743435,Monroe County,2019,1730,0.908,0.764,0.183,0,0.022,0,0,0.031,0,1,0.092,0.862,0.031,0,0,0,0.107,0,0,0,761,53264,51,40,31,48,16,89,42,50,8,41,57,99,66,10,26,87,250700,0,0,0,0,0,0,0,0,0,0,0,15,0,0,0,0,27,44,34,46,7,0,0,0,0,0
1577 Military Road,,Niagara Falls,NY,14304,43.094787,-78.97001,Niagara County,2019,1738,0.997,0.961,0.025,0.014,0,0,0,0,0,0,0.003,1,0,0,0,0,0,0,0,0,834,37220,31,47,65,67,66,14,207,27,0,22,83,61,45,39,60,0,71300,112,75,60,14,41,0,0,0,30,0,41,18,15,60,35,49,66,46,13,0,0,0,0,0,0,0
200 Boylston Street,,Newton,MA,2467,42.318779,-71.175033,Middlesex County,2019,1766,0.921,0.641,0.019,0,0.328,0,0,0.012,1,0,0.079,0.614,0,0,0,0,0.371,0.014,1,0,852,107851,41,28,28,52,13,46,24,0,54,25,0,74,154,48,35,230,908300,14,0,0,0,0,0,0,0,0,0,0,0,0,0,0,0,0,12,37,43,55,59,109,53,169,27
4960 Transit Road,,Depew,NY,14043,42.881042,-78.697091,Erie County,2019,1782,0.97,0.919,0.057,0,0.008,0,0,0.016,0,1,0.03,0,0,0,0,0,0.547,0.453,0,1,740,54853,79,25,31,72,16,36,37,34,17,24,80,61,58,70,82,18,146400,0,0,0,0,0,0,0,0,31,0,0,0,13,116,101,136,38,35,16,0,0,0,7,0,0,0
1200 Wake Towne Drive,,Raleigh,NC,27609,35.821326,-78.62083,Wake County,2019,1841,0.655,0.678,0.241,0,0.007,0,0.036,0.038,0,1,0.345,0.016,0,0,0,0,0.984,0,0,0,701,42125,61,30,0,75,83,10,32,70,12,35,95,31,0,10,35,122,344400,0,0,0,0,0,0,0,0,0,0,0,0,0,0,0,15,0,12,55,71,49,25,0,0,0,0
3701 Mt. Read Boulevard,,Rochester,NY,14616,43.226262,-77.660687,Monroe County,2019,1914,0.967,0.868,0.061,0,0.061,0,0,0.01,0,1,0.033,0,0,0,0,0,1,0,0,0,721,71758,0,0,15,14,16,22,14,35,43,85,178,89,148,13,22,27,124900,26,16,15,0,14,0,0,0,0,0,0,64,50,173,219,118,19,0,0,0,0,0,0,0,0,0
370 Orchard Park Road,,West Seneca,NY,14224,42.834578,-78.783578,Erie County,2019,1928,0.921,0.989,0.011,0,0,0,0,0,0,0,0.079,0.888,0,0,0,0,0.039,0.072,0,1,986,51179,36,43,64,74,76,26,32,57,60,126,142,168,50,20,0,12,154100,0,0,0,0,0,0,0,0,9,0,0,10,39,87,74,167,42,31,0,21,0,13,0,0,0,0
1104 Highway 35 S,,Ocean,NJ,7712,40.239357,-74.037498,Monmouth County,2019,1935,0.964,0.563,0.301,0,0.115,0,0,0.021,0,1,0.036,0.857,0.129,0,0,0,0.014,0,0,0,717,73068,9,25,8,13,38,35,21,38,16,43,138,90,52,49,55,87,512900,0,0,0,0,0,0,0,0,0,0,0,0,0,0,0,0,0,0,0,62,78,145,10,0,0,0
1056 East Lancaster Avenue,,Downington,PA,19335,40.017356,-75.677686,Chester County,2019,1961,0.855,0.771,0.01,0,0.207,0,0,0.012,0,1,0.145,0.743,0,0,0,0,0.123,0.134,0,1,953,89913,0,35,12,85,31,51,40,15,0,42,78,148,108,127,123,58,288400,0,0,0,0,0,0,0,0,0,0,0,0,0,0,17,0,15,54,127,39,115,0,0,0,0,0
5275 Sheridan Drive,,Williamsville,NY,14221,42.977007,-78.736944,Erie County,2019,1977,0.977,0.839,0.155,0,0.006,0,0,0,0,0,0.023,0.911,0,0,0,0,0.089,0,0,0,1108,35319,146,151,34,121,26,70,59,103,0,19,58,83,144,30,36,28,172000,35,0,0,0,0,0,0,0,0,0,0,0,0,36,0,87,19,25,34,17,0,28,14,0,0,0
21 Wegmans Blvd,,Abingdon,MD,21009,39.466286,-76.309516,Harford County,2019,1997,0.845,0.784,0.147,0,0.05,0,0,0.02,0,1,0.155,0.272,0.068,0,0,0,0.625,0.036,1,0,1150,41123,170,70,145,74,31,0,54,77,11,174,123,140,11,0,44,26,191000,0,0,0,0,0,0,0,0,0,0,0,0,0,0,9,89,25,26,52,27,0,0,0,0,0,0
6660 4th Section Road,,Brockport,NY,14420,43.200304,-77.947602,Monroe County,2019,2022,0.965,0.905,0.051,0,0.015,0,0,0.029,0,1,0.035,0.493,0,0,0,0,0.507,0,0,0,878,59583,72,45,69,23,37,55,23,40,39,40,83,176,90,26,34,26,146400,0,0,6,0,0,0,0,8,30,16,48,14,7,12,86,96,66,28,6,6,0,0,0,0,0,0
15 Woodbridge Center Drive,,Woodbridge,NJ,7095,40.549881,-74.297725,Middlesex County,2019,2134,0.939,0.143,0.067,0,0.726,0,0.051,0.013,1,0,0.061,0.854,0,0,0,0,0.146,0,0,0,646,106611,0,0,0,0,0,17,45,0,0,0,51,166,116,48,142,61,0,0,0,0,0,0,0,0,0,0,0,0,0,0,0,0,0,0,0,15,0,0,0,0,0,0,0
220 Highland Park Blvd,,Wilkes-Barre,PA,18702,41.236738,-75.861314,Luzerne County,2019,2157,0.838,0.801,0.013,0,0.115,0,0,0.071,0,1,0.162,0.567,0.152,0,0,0,0,0.281,0,1,917,57875,111,42,35,18,24,26,59,85,30,54,139,119,136,16,23,0,92200,0,0,8,0,0,23,0,8,47,52,16,74,48,59,93,32,8,0,9,0,0,0,0,0,0,0
6600 Pittsford-Palmyra Road,,Fairport,NY,14450,43.0714,-77.445913,Monroe County,2019,2177,0.979,0.952,0.024,0,0.024,0,0,0,0,0,0.021,1,0,0,0,0,0,0,0,0,1267,54954,67,28,89,99,14,76,88,14,116,102,112,247,150,0,16,49,156800,16,13,14,0,0,0,0,0,0,15,0,0,221,95,59,143,201,113,15,39,0,0,0,0,0,0
2 Centerton Road,,Mt. Laurel,NJ,8054,39.967623,-74.916075,Burlington County,2019,2212,0.999,0.833,0.074,0,0.069,0,0,0.024,0,1,0.001,0,0,0,0,0,1,0,0,0,926,118846,62,0,17,49,26,0,15,0,32,60,0,152,100,31,207,175,460300,0,0,0,0,0,0,0,12,0,0,0,0,0,0,0,84,53,47,46,0,156,217,57,0,0,0
500 Montgomery Mall,,North Wales,PA,19454,40.20497,-75.279867,Montgomery County,2019,2229,0.983,0.885,0.026,0,0.083,0,0,0.005,0,1,0.017,1,0,0,0,0,0,0,0,0,924,118056,0,51,15,5,10,22,26,32,32,22,74,100,100,103,88,244,483800,0,0,5,0,0,0,0,4,0,0,0,0,0,5,5,15,17,10,42,184,179,385,11,12,0,0
650 Hylan Drive,,Rochester,NY,14623,43.082352,-77.627627,Monroe County,2019,2230,0.991,0.586,0.154,0.026,0.207,0,0,0.027,0,1,0.009,1,0,0,0,0,0,0,0,0,978,40068,112,119,34,73,86,46,16,111,34,47,49,92,98,51,10,0,129100,0,0,0,0,0,0,0,0,0,0,19,0,34,119,221,12,0,0,12,0,0,0,0,0,0,0
1810 Fordham Road,,Chapel Hill,NC,27514,35.94483,-79.009377,Orange County,2019,2279,0.977,0.596,0.194,0,0.184,0,0.013,0.012,0,1,0.023,1,0,0,0,0,0,0,0,0,860,73200,19,38,15,48,11,15,56,71,39,67,69,172,89,28,58,65,244700,0,0,0,0,0,0,0,0,0,0,20,59,0,0,29,39,22,142,134,107,0,40,0,0,0,0
3177 Latta Road,,Rochester,NY,14612,43.250768,-77.699273,Monroe County,2019,2293,0.992,0.945,0.051,0.004,0,0,0,0,0,0,0.008,1,0,0,0,0,0,0,0,0,922,84216,37,35,12,18,17,67,50,14,31,74,59,70,145,44,152,97,180100,14,0,0,0,0,0,0,0,0,0,0,0,0,35,135,142,146,195,44,0,0,0,0,0,0,0
2833 Ridge Road West,,Rochester,NY,14626,43.209288,-77.707918,Monroe County,2019,2324,0.97,0.873,0.054,0,0.025,0,0,0.048,0,1,0.03,0.812,0.188,0,0,0,0,0,0,0,988,58480,17,86,62,68,9,68,47,34,38,96,28,154,153,76,27,25,130700,10,0,0,0,0,0,0,0,0,0,35,39,52,193,254,144,24,0,0,0,0,0,17,0,0,5
2157 Penfield Road,,Penfield,NY,14526,43.128837,-77.443372,Monroe County,2019,2348,0.973,0.869,0.118,0,0.007,0,0,0.006,0,1,0.027,0.469,0.438,0,0,0,0.094,0,0,0,1124,44154,70,30,70,142,25,73,95,79,40,102,152,67,123,16,40,0,152300,0,26,0,0,0,0,0,0,0,0,0,13,58,153,92,334,16,17,0,24,0,0,0,13,0,0
100 Wegmans Way,,Charlottesville,VA,22902,38.008781,-78.50046,Albemarle County,2019,2348,0.913,0.736,0.152,0.004,0.097,0,0,0.011,0,1,0.087,0.961,0,0,0,0,0.039,0,0,0,732,106136,15,0,21,9,14,32,7,6,0,80,61,94,102,95,99,97,292600,0,0,0,0,8,0,0,0,8,0,0,0,0,0,0,21,30,154,95,195,89,4,0,0,0,0
2301 Lyell Avenue,,Rochester,NY,14606,43.16335,-77.688506,Monroe County,2019,2365,0.956,0.789,0.18,0,0,0,0,0.031,0,1,0.044,0.356,0,0,0,0,0,0.644,0,1,1105,63117,0,22,83,7,75,16,12,63,123,96,250,174,138,24,12,10,119500,0,0,0,0,0,0,0,0,0,22,68,115,139,267,383,83,0,11,0,0,0,0,0,17,0,0
5000 Wegmans Drive,,Bethlehem,PA,18017,40.66544,-75.388097,Northampton County,2019,2374,0.849,0.902,0.043,0,0.048,0,0,0.008,0,1,0.151,0.754,0,0,0,0,0.092,0.154,0.618,0.382,1002,81731,24,26,13,36,77,67,32,29,26,22,128,96,52,99,195,80,274300,0,0,0,0,0,0,0,0,0,0,13,0,0,0,31,40,71,100,152,224,13,0,0,0,0,14
10100 Reisterstown Road,,Owings Mills,MD,21117,39.413008,-76.774688,Baltimore County,2019,2415,0.895,0.499,0.444,0,0.016,0,0,0.04,0,1,0.105,0.826,0.051,0,0,0,0,0.123,1,0,1161,66696,48,24,44,15,56,12,92,94,0,115,119,184,130,152,0,76,203800,0,0,0,0,0,0,0,0,0,0,0,0,0,0,101,92,103,198,109,19,0,0,0,0,0,0
9102 Shops Way,,Northborough,MA,1532,42.291663,-71.670616,Worcester County,2019,2439,0.948,0.721,0.058,0.015,0.206,0,0,0,0,0,0.052,0.313,0,0,0,0.063,0.625,0,0,0,894,128452,7,49,7,0,20,20,5,50,36,22,40,88,81,140,101,228,458300,7,0,0,0,0,0,0,0,0,0,0,0,0,0,0,0,0,26,30,122,168,137,67,9,0,0
3900 Tilghman Street,,Allentown,PA,18104,40.591869,-75.541765,Lehigh County,2019,2443,0.802,0.63,0.078,0,0.248,0,0.044,0,0,0,0.198,0.497,0,0,0,0,0.503,0,0,0,997,71732,41,16,48,23,0,47,115,0,0,109,117,122,102,51,102,104,334700,0,0,0,0,0,0,0,0,0,0,0,0,0,0,0,10,0,47,24,157,11,13,0,9,0,0
745 Calkins Road,,Rochester,NY,14623,43.067076,-77.612118,Monroe County,2019,2446,0.983,0.685,0.094,0,0.129,0,0.057,0.035,0,1,0.017,1,0,0,0,0,0,0,0,0,991,64779,13,15,48,86,57,80,44,27,24,53,80,202,132,64,8,58,128300,0,17,0,0,0,0,0,0,0,0,0,15,34,212,293,63,0,0,0,0,0,0,0,0,0,0
8855 Mcgaw Rd,,Columbia,MD,21045,39.186279,-76.820048,Howard County,2019,2485,0.882,0.38,0.518,0,0.083,0,0.012,0.007,0,1,0.118,0.777,0.113,0,0,0,0,0.11,1,0,979,98750,42,43,64,9,0,57,18,14,0,37,86,124,134,137,150,64,259700,10,0,0,11,0,0,0,0,0,0,0,0,0,10,27,0,16,190,80,205,10,0,0,0,0,0
3740 Mckinley Pkwy,,Buffalo,NY,14219,42.783474,-78.812395,Erie County,2019,2498,0.957,0.945,0.019,0,0,0,0,0.036,0,1,0.043,0.907,0,0,0,0,0.093,0,0,0,1113,56402,64,25,37,100,65,36,44,11,103,98,97,130,107,78,91,27,149700,0,0,0,0,0,0,0,0,0,0,14,23,0,96,198,69,83,0,102,46,0,27,0,0,0,0
900 Holt Road,,Webster,NY,14580,43.213172,-77.444124,Monroe County,2019,2502,0.986,0.696,0.068,0,0.219,0,0,0.017,0,1,0.014,1,0,0,0,0,0,0,0,0,1270,45147,34,53,142,55,113,59,118,60,35,132,143,164,57,64,41,0,125000,0,0,0,0,0,0,0,0,0,0,0,14,0,43,32,0,0,0,14,11,0,0,0,0,0,0
1405 Main St,,Warrington,PA,18976,40.230371,-75.131969,Bucks County,2019,2509,0.99,0.875,0.039,0,0.086,0,0,0,0,0,0.01,1,0,0,0,0,0,0,0,0,1150,69783,24,21,10,76,10,56,46,38,45,141,155,108,180,39,115,86,345400,0,0,10,0,0,10,0,0,0,0,0,0,0,0,0,36,51,87,32,248,163,40,0,0,0,0
7830 Wormans Mill Road,,Frederick,MD,21701,39.445805,-77.399928,Frederick County,2019,2529,0.882,0.787,0.154,0,0.033,0,0,0.026,0,1,0.118,0.592,0,0,0,0,0.368,0.04,0,1,989,108295,0,0,17,16,47,0,7,34,9,37,108,151,146,158,117,142,307200,0,0,0,0,0,11,0,0,0,11,0,0,0,0,0,8,17,87,226,230,133,30,0,0,0,0
4287 Genesee Valley Plaza,,Geneseo,NY,14454,42.797189,-77.784236,Livingston County,2019,2553,0.981,1,0,0,0,0,0,0,0,0,0.019,1,0,0,0,0,0,0,0,0,1240,53542,69,73,80,30,32,89,75,28,65,100,80,164,126,22,68,139,198500,0,0,17,0,0,0,0,0,20,0,13,0,19,59,55,64,86,108,24,60,48,32,25,26,0,0
45131 Columbia Place,,Sterling,VA,20166,39.006992,-77.440693,Loudoun County,2019,2642,0.913,0.522,0.048,0.005,0.366,0,0,0.059,0.455,0.545,0.087,0.442,0,0,0,0,0.398,0.16,1,0,829,149181,0,0,7,0,0,12,19,0,0,49,23,56,124,134,124,281,599200,0,0,0,0,0,0,0,0,0,0,0,0,0,12,0,0,0,0,0,108,97,325,150,0,0,0
8270 Transit Road,,Williamsville,NY,14221,42.99341,-78.698919,Erie County,2019,2755,0.94,0.834,0.017,0,0.11,0,0.015,0.023,0,1,0.06,0.224,0,0,0,0,0.776,0,0,0,1343,94583,42,58,22,226,0,0,31,18,16,55,87,141,111,72,237,227,346900,0,0,0,0,0,0,0,0,0,0,0,0,0,12,10,32,12,119,38,225,62,93,19,35,0,0
101 Crosstrail Blvd Se,,Leesburg,VA,20175,39.089261,-77.521733,Loudoun County,2019,2826,0.814,0.573,0.167,0.004,0.166,0,0.032,0.058,0,1,0.186,0.638,0.085,0,0.201,0,0.021,0.055,1,0,913,152321,5,0,13,12,73,0,0,23,21,14,66,51,76,96,130,333,559800,25,0,0,0,0,0,0,0,0,0,0,0,0,0,0,0,0,14,0,24,116,343,0,0,0,0
724 Route 202 South,,Bridgewater,NJ,8807,40.605416,-74.624238,Somerset County,2019,2835,0.897,0.805,0.026,0,0.159,0,0,0.01,0,1,0.103,0.763,0.237,0,0,0,0,0,0,0,882,153167,0,0,14,7,15,6,0,14,27,0,92,84,96,67,156,304,562500,13,0,0,0,0,0,0,0,8,0,0,0,0,0,0,0,0,0,0,61,216,388,96,8,0,0
55 US Highway 9,,Englishtown,NJ,7726,40.290696,-74.300084,Monmouth County,2019,2885,0.907,0.838,0.039,0,0.11,0,0.003,0.011,0,1,0.093,1,0,0,0,0,0,0,0,0,1044,116667,0,0,35,25,20,0,47,0,79,55,80,74,181,119,136,193,419800,31,0,0,0,0,0,0,12,0,0,0,0,0,12,0,0,0,0,0,333,296,192,8,0,0,9
2281 Carl D. Silver Parkway,,Fredericksburg,VA,22401,38.31309,-77.508289,Fredericksburg city,2019,3137,0.749,0.332,0.526,0,0.027,0,0,0.114,0,1,0.251,0.043,0,0,0,0,0.957,0,0,0,938,49476,138,0,51,0,0,63,65,61,104,105,61,187,30,0,63,10,0,0,0,0,0,0,0,0,0,0,0,0,49,0,0,0,0,0,0,0,24,0,0,10,0,0,0
12200 Wegmans Blvd,,Henrico,VA,23233,37.663029,-77.635397,Henrico County,2019,3933,0.991,0.701,0.119,0,0.173,0,0,0.007,0,1,0.009,1,0,0,0,0,0,0,0,0,1290,134881,30,0,0,67,11,0,52,12,0,0,144,165,79,189,159,382,448900,0,0,0,0,0,0,0,0,0,0,0,0,0,0,0,14,0,0,30,273,181,302,11,0,0,0
50 Foundry Way,,Malvern,PA,19355,40.049222,-75.517795,Chester County,2019,4125,0.968,0.691,0.081,0,0.218,0,0,0.01,0.366,0.634,0.032,1,0,0,0,0,0,0,0,0,1572,138837,0,16,0,20,15,13,0,14,0,88,135,226,178,166,305,396,480500,0,0,0,0,14,14,0,14,0,21,0,0,0,0,0,13,55,139,14,74,280,471,45,13,0,0
14801 Dining Way,,Woodbridge,VA,22191,38.631192,-77.288805,Prince William County,2019,4190,0.879,0.321,0.474,0,0.136,0,0,0.069,0.047,0.953,0.121,0.553,0.116,0,0,0,0.183,0.148,0.427,0.573,1655,118301,13,0,0,8,10,12,36,39,104,55,136,189,296,165,362,230,323300,7,0,0,0,0,0,0,0,0,0,0,0,0,0,0,0,9,19,350,597,66,0,0,0,0,0
6416 Carlisle Pike Suite 2000,,Mechanicsburg,PA,17050,40.247647,-77.006841,Cumberland County,2019,5569,0.969,0.859,0.015,0.003,0.111,0,0,0.013,0,1,0.031,0.782,0,0,0,0,0.218,0,0,0,2315,87611,65,71,45,27,60,91,46,79,63,111,356,363,382,212,176,168,270000,7,0,14,0,0,0,0,0,0,0,0,0,14,22,60,156,158,169,305,178,109,192,45,0,0,15
100 Applied Bank Blvd,,Glen Mills,PA,19342,39.875893,-75.541723,Delaware County,2019,5762,0.988,0.776,0.051,0,0.164,0,0,0.008,0,1,0.012,0.373,0.627,0,0,0,0,0,0,0,2679,95578,26,13,38,66,204,71,171,25,62,268,202,245,309,246,337,396,424900,0,0,0,0,0,13,0,0,0,0,0,0,0,0,0,0,14,105,214,306,348,326,90,23,38,0
240 Nassau Park Blvd,,Princeton,NJ,8540,40.304644,-74.677491,Mercer County,2019,5817,0.956,0.228,0.07,0,0.673,0,0,0.029,0,1,0.044,0.551,0.012,0,0,0,0.242,0.195,0,1,2078,96538,109,60,22,34,83,96,49,23,10,100,177,281,99,83,232,620,754400,22,0,0,0,0,0,0,0,0,0,0,0,0,0,13,0,0,0,12,89,53,202,373,31,0,0
9001 Mchugh Drive,,Lanham,MD,20706,38.921403,-76.850685,Prince George's County,2019,6219,0.982,0.074,0.853,0.008,0.026,0,0.01,0.028,0.202,0.798,0.018,0.439,0.079,0,0,0,0.482,0,0,0,2031,130313,83,16,48,7,48,0,30,31,9,122,158,201,226,176,372,504,417800,45,0,0,0,0,0,0,0,14,0,0,0,0,28,18,0,16,102,222,373,430,469,50,0,0,22
1413 South Main Chapel Way,,Gambrills,MD,21054,39.031476,-76.688013,Anne Arundel County,2019,7472,0.905,0.735,0.13,0.003,0.054,0,0.007,0.071,0.093,0.907,0.095,0.574,0.024,0,0,0,0.03,0.373,0,1,2848,116250,17,18,52,106,0,126,84,75,14,156,208,422,268,336,481,485,358500,18,0,0,15,0,0,0,0,0,0,0,0,0,0,18,0,51,346,333,523,325,454,91,0,0,0
3710 Davis Drive,,Morrisville,NC,27560,35.828323,-78.850233,Wake County,2019,9808,0.944,0.36,0.088,0.022,0.474,0,0,0.057,0.151,0.849,0.056,0.843,0,0,0,0,0,0.157,0.218,0.782,3444,110729,103,131,15,30,14,169,47,0,106,214,296,360,543,315,596,505,304600,42,0,0,0,0,0,0,0,0,0,47,0,0,84,115,111,177,371,217,820,226,131,0,0,48,14
1315 Cold Spring Road,,Scranton,PA,18508,41.439979,-75.66843,Lackawanna County,2019,1073,0.913,0.986,0,0,0,0,0.014,0,0,0,0.087,0,0.29,0,0,0,0.71,0,0,0,531,34116,50,72,34,0,31,93,23,26,4,43,38,75,0,27,15,0,96900,10,0,0,0,0,0,0,0,0,0,20,65,70,62,35,0,0,10,15,0,0,0,0,0,0,0
100 Farm View,,Montvale,NJ,7645,41.054651,-74.045425,Bergen County,2019,1945,0.898,0.672,0.062,0,0.255,0,0,0.011,0,1,0.102,0.789,0,0,0,0,0,0.211,1,0,746,149063,38,0,15,0,0,12,21,0,0,0,44,64,66,125,64,297,670300,0,0,0,0,0,0,0,0,0,0,0,0,0,15,0,7,0,0,12,0,44,342,179,23,0,0
1835 Capitole One Drive South,,Tysons,VA,22102,38.953033,-77.229496,Fairfax County,2019,3003,0.98,0.628,0.021,0,0.341,0,0,0.011,0,1,0.02,1,0,0,0,0,0,0,0,0,1000,250001,0,57,0,0,0,0,0,0,0,0,0,21,55,67,110,690,1691300,0,0,0,0,0,0,0,0,0,0,0,0,0,0,0,0,0,0,0,0,0,0,98,275,262,365
